City,Latitude,Longitude
Riyadh,24.7136,46.6753
Jeddah,21.2854,39.2376
Mecca,21.3891,39.8579
Medina,24.5247,39.5692
Dammam,26.3927,49.9777
Khobar,26.2172,50.1971
Abha,18.2465,42.5117
Tabuk,28.3835,36.5662
Hail,27.5114,41.7208
Buraidah,26.3259,43.974
